City_ID,City,Lat,Lng,Max Temp,Humidity,Cloudiness,Wind Speed,Country,Date
0,sao joao da barra,-21.6403,-41.0511,71.69,86,23,4.23,BR,2023-07-17
1,wailua homesteads,22.0669,-159.378,84.99,70,40,16.11,US,2023-07-17
2,port mathurin,-19.6833,63.4167,74.08,79,56,27.96,MU,2023-07-17
3,avarua,-21.2078,-159.775,71.65,88,100,2.3,CK,2023-07-17
4,howrah,22.5892,88.3103,80.6,100,40,4.61,IN,2023-07-17
5,edinburgh of the seven seas,-37.0676,-12.3116,56.07,67,64,13.49,SH,2023-07-17
6,adamstown,-25.066,-130.1015,70.54,73,18,13.27,PN,2023-07-17
7,bomdila,27.25,92.4,58.98,95,99,2.53,IN,2023-07-17
8,lebu,-37.6167,-73.65,46.33,77,57,6.08,CL,2023-07-17
9,eraan,9.0629,117.7016,78.35,80,98,4.99,PH,2023-07-17
10,port hedland,-20.3167,118.5667,55.45,62,8,4.61,AU,2023-07-17
11,bredasdorp,-34.5322,20.0403,54.37,95,19,5.19,ZA,2023-07-17
12,longyearbyen,78.2186,15.6401,48.04,57,0,13.8,SJ,2023-07-17
13,invercargill,-46.4,168.35,50.54,89,100,12.3,NZ,2023-07-17
14,albany,42.6001,-73.9662,82.22,73,99,0.58,US,2023-07-17
15,constantia,44.1833,28.65,68.68,71,0,9.1,RO,2023-07-17
16,yellowknife,62.456,-114.3525,72.12,49,100,11.5,CA,2023-07-17
17,port-aux-francais,-49.35,70.2167,41.22,84,79,36.82,TF,2023-07-17
18,thompson,55.7435,-97.8558,66.36,55,75,5.75,CA,2023-07-17
19,jamestown,42.097,-79.2353,76.64,60,0,8.05,US,2023-07-17
20,kristiansund,63.1115,7.732,54.25,87,75,11.5,NO,2023-07-17
21,atafu village,-8.5421,-172.5159,83.89,76,62,11.86,TK,2023-07-17
22,dombarovskiy,50.7587,59.5386,61.32,76,74,5.32,RU,2023-07-17
23,badger,64.8,-147.5333,75.99,45,40,8.05,US,2023-07-17
24,hawaiian paradise park,19.5933,-154.9731,84.72,75,100,9.22,US,2023-07-17
25,st. john's,47.5649,-52.7093,79.99,61,20,16.11,CA,2023-07-17
26,labytnangi,66.6572,66.4183,54.61,84,58,6.73,RU,2023-07-17
27,grytviken,-54.2811,-36.5092,24.06,85,91,4.0,GS,2023-07-17
28,khandyga,62.6667,135.6,64.44,46,82,5.59,RU,2023-07-17
29,sitka,57.0531,-135.33,60.69,77,100,12.66,US,2023-07-17
30,saipan,15.1355,145.701,84.9,100,40,9.22,MP,2023-07-17
31,banff,51.1762,-115.5698,62.98,48,75,3.44,CA,2023-07-17
32,terra nova,-12.3667,-40.6667,66.24,74,41,4.0,BR,2023-07-17
33,iqaluit,63.7506,-68.5145,42.53,100,100,6.91,CA,2023-07-17
34,amarante do maranhao,-5.5667,-46.7422,78.35,40,9,3.18,BR,2023-07-17
35,papatowai,-46.5619,169.4708,51.62,82,88,13.6,NZ,2023-07-17
36,ribeira grande,38.5167,-28.7,64.78,82,21,8.99,PT,2023-07-17
37,hermanus,-34.4187,19.2345,55.8,92,16,7.72,ZA,2023-07-17
38,olonkinbyen,70.9221,-8.7187,40.06,91,100,24.54,SJ,2023-07-17
39,punta del este,-34.9667,-54.95,47.88,66,40,14.0,UY,2023-07-17
40,port elizabeth,-33.918,25.5701,53.89,94,0,3.44,ZA,2023-07-17
41,ushuaia,-54.8,-68.3,38.86,60,20,6.91,AR,2023-07-17
42,isafjordur,66.0755,-23.124,48.6,84,74,3.53,IS,2023-07-17
43,kapuskasing,49.4169,-82.4331,68.09,63,75,11.5,CA,2023-07-17
44,tsumeb,-19.2333,17.7167,55.04,26,0,9.04,,2023-07-17
45,solwezi,-12.1688,26.3894,52.84,59,0,4.65,ZM,2023-07-17
46,nemuro,43.3236,145.575,57.16,96,100,7.9,JP,2023-07-17
47,stanley,54.868,-1.6985,54.28,83,41,6.02,GB,2023-07-17
48,palikir - national government center,6.9248,158.1611,81.34,83,100,6.91,FM,2023-07-17
49,christchurch,-43.5333,172.6333,60.48,65,11,1.01,NZ,2023-07-17
50,acapulco de juarez,16.8634,-99.8901,84.02,70,100,10.36,MX,2023-07-17
51,enewetak,11.3474,162.3373,83.08,80,31,14.27,MH,2023-07-17
52,tiksi,71.6872,128.8694,52.41,61,52,15.52,RU,2023-07-17
53,blackmans bay,-43.0167,147.3167,51.73,62,54,9.19,AU,2023-07-17
54,languyan,5.2618,120.0807,79.29,89,100,6.13,PH,2023-07-17
55,waitangi,-43.9535,-176.5597,54.82,86,87,8.01,NZ,2023-07-17
56,richards bay,-28.783,32.0377,63.5,73,0,9.82,ZA,2023-07-17
57,fort madison,40.6298,-91.3151,75.92,64,8,0.0,US,2023-07-17
58,leer,53.2316,7.461,58.95,91,0,7.67,DE,2023-07-17
59,fort frances,48.5999,-93.4003,67.05,70,100,8.05,CA,2023-07-17
60,knyaze-volkonskoye,48.4642,135.4567,68.34,93,100,2.13,RU,2023-07-17
61,luderitz,-26.6481,15.1594,62.96,55,0,7.94,,2023-07-17
62,ulety,51.3572,112.4849,65.48,83,74,4.29,RU,2023-07-17
63,sultanpur,26.2667,82.0667,85.24,71,98,7.29,IN,2023-07-17
64,sierra grande,-41.606,-65.3557,37.81,44,0,12.33,AR,2023-07-17
65,ust-nera,64.5667,143.2,60.85,40,12,4.41,RU,2023-07-17
66,tofol,5.3248,163.0078,83.98,79,75,3.44,FM,2023-07-17
67,kavaratti,10.5669,72.642,82.58,79,100,21.61,IN,2023-07-17
68,manggar,-2.8833,108.2667,81.68,78,71,15.99,ID,2023-07-17
69,susuman,62.7833,148.1667,63.59,55,77,2.71,RU,2023-07-17
70,along,28.1667,94.7667,72.0,92,92,0.76,IN,2023-07-17
71,carnarvon,-24.8667,113.6333,59.5,54,0,5.79,AU,2023-07-17
72,tralee,52.2704,-9.7026,53.71,96,100,6.71,IE,2023-07-17
73,san andres,12.5847,-81.7006,84.22,84,20,14.97,CO,2023-07-17
74,puerto natales,-51.7236,-72.4875,31.06,90,79,4.63,CL,2023-07-17
75,west island,-12.1568,96.8225,73.38,73,75,5.75,CC,2023-07-17
76,hami,42.8,93.45,84.76,24,85,11.25,CN,2023-07-17
77,juhaynah,26.6732,31.4976,91.72,17,0,7.34,EG,2023-07-17
78,saldanha,-33.0117,17.9442,50.05,89,10,5.28,ZA,2023-07-17
79,georgetown,5.4112,100.3354,82.33,100,40,3.44,MY,2023-07-17
80,bandar lampung,-5.4254,105.258,71.92,95,12,1.59,ID,2023-07-17
81,lysekil,58.2743,11.4358,60.12,82,63,28.41,SE,2023-07-17
82,talnakh,69.4865,88.3972,48.97,96,100,11.1,RU,2023-07-17
83,fort bragg,35.139,-79.006,88.83,60,0,5.01,US,2023-07-17
84,utrik,11.2278,169.8474,82.89,78,14,14.76,MH,2023-07-17
85,aasiaat,68.7098,-52.8699,37.27,95,100,6.46,GL,2023-07-17
86,queenstown,-31.8976,26.8753,50.86,40,4,6.64,ZA,2023-07-17
87,terme,41.2092,36.9739,62.53,77,0,4.65,TR,2023-07-17
88,selfoss,63.9331,-20.9971,53.04,69,80,8.25,IS,2023-07-17
89,lompoc,34.6391,-120.4579,77.58,71,75,5.99,US,2023-07-17
90,qarazhal,48.0078,70.7903,77.9,30,59,11.5,KZ,2023-07-17
91,dordrecht,51.81,4.6736,63.99,80,41,3.0,NL,2023-07-17
92,kingston,17.997,-76.7936,86.95,79,75,20.71,JM,2023-07-17
93,mossel bay,-34.1831,22.146,57.04,89,7,1.34,ZA,2023-07-17
94,cabo san lucas,22.8909,-109.9124,97.61,46,0,13.8,MX,2023-07-17
95,surgut,61.25,73.4167,55.58,76,0,4.47,RU,2023-07-17
96,dudinka,69.4058,86.1778,56.8,96,99,13.09,RU,2023-07-17
97,olinda,-8.0089,-34.8553,78.53,83,75,11.5,BR,2023-07-17
98,bethel,41.3712,-73.414,85.05,74,54,1.01,US,2023-07-17
99,pathein,16.7833,94.7333,79.27,86,100,10.42,MM,2023-07-17
100,boca do acre,-8.7522,-67.3978,81.84,62,86,0.83,BR,2023-07-17
101,booue,-0.0921,11.9385,74.5,93,95,3.83,GA,2023-07-17
102,mao,39.8885,4.2658,79.36,100,75,4.61,ES,2023-07-17
103,tournus,46.5676,4.9057,67.28,80,0,4.07,FR,2023-07-17
104,almansa,38.8692,-1.0971,75.94,66,0,3.13,ES,2023-07-17
105,tadine,-21.55,167.8833,71.91,65,48,18.92,NC,2023-07-17
106,ebon,4.582,168.6964,82.74,78,68,8.46,MH,2023-07-17
107,sal rei,16.1833,-22.9167,76.59,75,90,15.21,CV,2023-07-17
108,slave lake,55.2834,-114.769,66.18,72,75,2.3,CA,2023-07-17
109,kingman,35.1894,-114.053,109.18,12,0,18.41,US,2023-07-17
110,kodiak,57.79,-152.4072,54.91,94,100,8.05,US,2023-07-17
111,terrace,54.5163,-128.6035,71.51,56,75,19.57,CA,2023-07-17
112,merizo village,13.2658,144.6691,85.98,85,90,13.42,GU,2023-07-17
113,westport,41.1415,-73.3579,86.45,75,0,9.22,US,2023-07-17
114,rio preto da eva,-2.6994,-59.6997,82.06,59,87,0.69,BR,2023-07-17
115,north platte,41.1239,-100.7654,80.49,61,0,12.66,US,2023-07-17
116,hithadhoo,-0.6,73.0833,82.0,71,37,3.18,MV,2023-07-17
117,nantucket,41.2835,-70.0995,82.45,94,75,12.71,US,2023-07-17
118,laojunmiao,39.8333,97.7333,73.0,24,0,4.5,CN,2023-07-17
119,nar'yan-mar,67.6713,53.087,61.21,71,80,10.0,RU,2023-07-17
120,san luis de la loma,17.2706,-100.8939,83.46,74,100,4.76,MX,2023-07-17
121,dunedin,-45.8742,170.5036,53.38,69,88,5.35,NZ,2023-07-17
122,joshimath,30.5667,79.5667,72.57,94,100,0.94,IN,2023-07-17
123,college,64.8569,-147.8028,76.08,45,75,8.05,US,2023-07-17
124,nova sintra,14.8667,-24.7167,71.85,77,45,17.6,CV,2023-07-17
125,las veredas,23.1388,-109.7075,96.96,55,0,14.97,MX,2023-07-17
126,medicine hat,50.0501,-110.6683,86.85,30,75,21.85,CA,2023-07-17
127,sibolga,1.7427,98.7792,75.29,89,96,3.2,ID,2023-07-17
128,pisco,-13.7,-76.2167,69.85,68,20,16.11,PE,2023-07-17
129,lihue,21.9789,-159.3672,85.59,69,40,16.11,US,2023-07-17
130,manokwari,-0.8667,134.0833,80.17,76,91,0.4,ID,2023-07-17
131,charters towers,-20.1,146.2667,63.63,75,100,11.97,AU,2023-07-17
132,serdar,38.9764,56.2757,78.44,49,92,5.44,TM,2023-07-17
133,ibia,-19.4783,-46.5389,76.46,47,55,1.9,BR,2023-07-17
134,gidam,18.9833,81.4,73.13,98,100,6.06,IN,2023-07-17
135,ponta delgada,37.7333,-25.6667,66.92,77,40,5.75,PT,2023-07-17
136,walvis bay,-22.9575,14.5053,74.35,23,0,17.27,,2023-07-17
137,wingham,43.8879,-81.3114,74.39,64,17,5.21,CA,2023-07-17
138,raja,8.4596,25.678,70.66,89,68,3.42,SS,2023-07-17
139,bilibino,68.0546,166.4372,70.92,63,12,7.56,RU,2023-07-17
140,dauphin,51.1494,-100.0502,73.54,53,75,8.05,CA,2023-07-17
141,kuta,-8.7233,115.1723,75.15,83,40,4.61,ID,2023-07-17
142,fisterra,42.9049,-9.2629,65.25,89,31,18.84,ES,2023-07-17
143,hasaki,35.7333,140.8333,81.0,77,48,3.11,JP,2023-07-17
144,bhawana,31.5692,72.649,92.57,52,11,6.11,PK,2023-07-17
145,ilulissat,69.2167,-51.1,42.82,93,75,2.3,GL,2023-07-17
146,weno,7.4515,151.8468,80.55,94,100,0.0,FM,2023-07-17
147,anadyr,64.75,177.4833,73.9,53,0,4.47,RU,2023-07-17
148,kaindy,42.8247,73.6759,77.34,31,0,6.73,KG,2023-07-17
149,petropavlovsk-kamchatsky,53.0452,158.6483,66.79,73,20,4.47,RU,2023-07-17
150,yeppoon,-23.1333,150.7333,65.98,73,100,14.41,AU,2023-07-17
151,iskateley,67.6803,53.1512,60.76,72,77,10.0,RU,2023-07-17
152,punta arenas,-53.15,-70.9167,37.51,81,75,12.66,CL,2023-07-17
153,crane,31.3974,-102.3501,101.43,12,0,17.67,US,2023-07-17
154,mathba,22.2855,89.9629,80.74,90,100,6.2,BD,2023-07-17
155,mabaruma,8.2,-59.7833,76.82,88,53,3.98,GY,2023-07-17
156,san patricio,28.017,-97.5169,96.89,44,1,15.48,US,2023-07-17
157,tshabong,-26.05,22.45,55.96,31,0,7.38,BW,2023-07-17
158,hamilton,39.1834,-84.5333,84.22,69,40,12.66,US,2023-07-17
159,svendborg,55.0598,10.6068,61.86,83,19,17.65,DK,2023-07-17
160,gurupi,-11.7292,-49.0686,81.03,30,8,6.26,BR,2023-07-17
161,camocim,-2.9022,-40.8411,79.54,74,6,16.53,BR,2023-07-17
162,kiiminki,65.1314,25.7974,59.77,68,70,7.52,FI,2023-07-17
163,sabang,5.8933,95.3214,83.95,76,80,22.84,ID,2023-07-17
164,cockburn town,21.4612,-71.1419,83.34,83,95,20.98,TC,2023-07-17
165,colonia,50.9333,6.95,59.92,80,0,2.3,DE,2023-07-17
166,jalai nur,49.45,117.7,70.18,57,86,8.1,CN,2023-07-17
167,caetite,-14.0694,-42.475,67.6,54,21,4.16,BR,2023-07-17
168,antigonish,45.6169,-61.9986,79.83,85,93,7.0,CA,2023-07-17
169,srisailain,16.0833,78.8667,74.25,86,100,15.46,IN,2023-07-17
170,amursk,50.2261,136.8994,69.64,76,6,3.4,RU,2023-07-17
171,barisal,22.7019,90.3711,80.02,91,99,8.59,BD,2023-07-17
172,ujae,8.9322,165.7642,83.25,77,40,11.23,MH,2023-07-17
173,tonj,7.2737,28.6822,71.98,86,69,3.85,SS,2023-07-17
174,aweil,8.7682,27.4002,75.7,72,64,2.75,SS,2023-07-17
175,pahrump,36.2083,-115.9839,111.25,15,82,5.99,US,2023-07-17
176,hovd,48.0056,91.6419,64.11,48,0,1.21,MN,2023-07-17
177,santa elena de uairen,4.6167,-61.1333,68.97,83,56,2.93,VE,2023-07-17
178,tura,25.5198,90.2201,74.46,97,98,3.29,IN,2023-07-17
179,minna,9.6139,6.5569,78.51,83,40,9.22,NG,2023-07-17
180,san antonio de pale,-1.4014,5.6325,73.74,82,83,9.46,GQ,2023-07-17
181,qaqortoq,60.7167,-46.0333,48.45,90,81,1.57,GL,2023-07-17
182,magadan,59.5667,150.8,60.22,82,47,4.74,RU,2023-07-17
183,portland,45.5234,-122.6762,80.01,52,75,9.22,US,2023-07-17
184,new norfolk,-42.7826,147.0587,52.92,59,86,9.42,AU,2023-07-17
185,zhezqazghan,47.7833,67.7667,70.38,37,0,11.18,KZ,2023-07-17
186,karatsu,33.4425,129.9697,84.09,84,100,2.17,JP,2023-07-17
187,katsuura,35.1333,140.3,82.29,71,4,2.98,JP,2023-07-17
188,chaplynka,46.3651,33.5403,70.57,62,31,8.48,UA,2023-07-17
189,sault ste. marie,46.5168,-84.3333,62.89,74,40,11.5,CA,2023-07-17
190,banda aceh,5.5577,95.3222,79.88,83,96,14.16,ID,2023-07-17
191,vorgashor,67.5833,63.95,49.82,94,74,4.83,RU,2023-07-17
192,novodvinsk,64.4165,40.8122,62.83,69,99,4.85,RU,2023-07-17
193,vilyuchinsk,52.9306,158.4028,68.27,86,91,5.01,RU,2023-07-17
194,velikiy ustyug,60.7644,46.3106,60.44,77,74,3.33,RU,2023-07-17
195,gizo,-8.103,156.8419,81.82,78,80,4.38,SB,2023-07-17
196,tezu,27.9167,96.1667,75.6,75,99,2.73,IN,2023-07-17
197,rosarito,32.3333,-117.0333,88.63,67,65,8.52,MX,2023-07-17
198,vila velha,-20.3297,-40.2925,75.15,87,0,6.91,BR,2023-07-17
199,faya-largeau,17.9257,19.1043,94.8,13,5,3.58,TD,2023-07-17
200,churapcha,62.0025,132.4325,64.35,51,36,15.17,RU,2023-07-17
201,sinabang,2.4803,96.3801,79.39,83,98,6.51,ID,2023-07-17
202,ta`u,-14.2336,-169.5144,80.13,78,28,10.71,AS,2023-07-17
203,nouadhibou,20.931,-17.0347,73.38,68,4,18.41,MR,2023-07-17
204,najran,17.4924,44.1277,84.85,29,90,7.09,SA,2023-07-17
205,arraial do cabo,-22.9661,-42.0278,69.76,88,75,8.05,BR,2023-07-17
206,madagali,10.8902,13.6312,82.65,49,41,3.06,NG,2023-07-17
207,chapaev,50.2,51.1667,61.9,87,56,7.76,KZ,2023-07-17
208,geraldton,-28.7667,114.6,45.01,81,2,12.66,AU,2023-07-17
209,fale old settlement,-9.3852,-171.2468,83.57,76,68,12.97,TK,2023-07-17
210,khorixas,-20.3667,14.9667,61.23,22,0,9.53,,2023-07-17
211,uturoa,-16.7333,-151.4333,78.04,75,22,11.07,PF,2023-07-17
212,princeville,45.7668,-61.2985,79.75,87,100,10.36,CA,2023-07-17
213,marsa alam,25.0757,34.8918,92.25,33,0,4.0,EG,2023-07-17
214,afaahiti,-17.75,-149.2833,82.27,72,7,4.92,PF,2023-07-17
215,puerto ayora,-0.7393,-90.3518,85.96,91,85,8.01,EC,2023-07-17
216,alice springs,-23.7,133.8833,49.55,81,100,0.0,AU,2023-07-17
217,kyaukse,21.6,96.1333,77.0,88,75,2.3,MM,2023-07-17
218,leua,48.2156,18.6071,68.9,81,0,4.47,SK,2023-07-17
219,alibag,18.6411,72.8792,77.07,88,100,14.12,IN,2023-07-17
220,tanout,14.9709,8.8879,92.73,29,9,9.15,NE,2023-07-17
221,inhambane,-23.865,35.3833,64.38,70,0,4.14,MZ,2023-07-17
222,taltal,-25.4,-70.4833,62.06,76,16,5.68,CL,2023-07-17
223,waddan,29.1614,16.139,81.09,46,2,7.05,LY,2023-07-17
224,amos,48.5669,-78.1162,67.12,63,53,9.86,CA,2023-07-17
225,tyup,42.7276,78.3648,59.32,68,0,2.35,KG,2023-07-17
226,yatou,37.15,122.3833,75.79,74,2,7.05,CN,2023-07-17
227,trinity beach,-16.7888,145.6968,75.02,83,75,11.5,AU,2023-07-17
228,tazovsky,67.4667,78.7,50.25,96,84,12.3,RU,2023-07-17
229,harpswell center,43.8018,-69.9842,84.29,88,68,4.0,US,2023-07-17
230,port alfred,-33.5906,26.891,59.67,79,16,4.23,ZA,2023-07-17
231,manadhoo,5.7667,73.3833,82.47,78,77,13.82,MV,2023-07-17
232,praia da vitoria,38.7333,-27.0667,70.05,78,75,3.83,PT,2023-07-17
233,ugento,39.9263,18.1574,74.7,59,0,7.78,IT,2023-07-17
234,pangoa,-12.1167,-73.0,70.77,86,20,2.46,PE,2023-07-17
235,yalutorovsk,56.6536,66.3006,62.83,95,100,3.24,RU,2023-07-17
236,san julian,21.0167,-102.1667,81.72,26,48,6.46,MX,2023-07-17
237,iquique,-20.2208,-70.1431,64.44,82,90,7.99,CL,2023-07-17
238,chernyshevskiy,63.0128,112.4714,49.28,79,100,11.72,RU,2023-07-17
239,sungai penuh,-2.0833,101.3833,64.26,98,93,2.93,ID,2023-07-17
240,makhjan,17.2698,73.5003,77.18,91,100,5.44,IN,2023-07-17
241,puerto armuelles,8.2833,-82.8667,71.58,84,86,2.8,PA,2023-07-17
242,tejen,37.3834,60.5054,82.65,40,0,22.64,TM,2023-07-17
243,maragogi,-9.0122,-35.2225,74.71,83,13,8.79,BR,2023-07-17
244,ojinaga,29.5667,-104.4167,106.41,17,0,8.05,MX,2023-07-17
245,itamaraca,-7.7478,-34.8256,78.85,86,12,9.75,BR,2023-07-17
246,kavieng,-2.5744,150.7967,82.76,77,94,3.83,PG,2023-07-17
247,kotido,2.9806,34.1331,70.54,57,84,6.33,UG,2023-07-17
248,bubaque,11.2833,-15.8333,79.11,84,100,13.4,GW,2023-07-17
249,ain sukhna,29.6002,32.3167,85.35,43,0,6.31,EG,2023-07-17
250,swakopmund,-22.6833,14.5333,74.25,43,0,1.99,,2023-07-17
251,indre arna,60.4247,5.4764,55.62,1,96,4.03,NO,2023-07-17
252,napier,-39.4833,176.9167,55.27,73,14,1.99,NZ,2023-07-17
253,wuhai,39.6647,106.8122,76.82,40,0,19.3,CN,2023-07-17
254,itaituba,-4.2761,-55.9836,84.06,47,97,1.23,BR,2023-07-17
255,chibougamau,49.9168,-74.3659,65.82,82,0,8.19,CA,2023-07-17
256,sebezh,56.2955,28.4654,60.51,81,73,5.03,RU,2023-07-17
257,puerto baquerizo moreno,-0.9,-89.6,79.79,78,75,13.8,EC,2023-07-17
258,whitehorse,60.7161,-135.0538,65.17,63,75,2.3,CA,2023-07-17
259,copperas cove,31.1241,-97.9031,106.72,18,0,12.66,US,2023-07-17
260,okhotsk,59.3833,143.3,68.56,51,40,12.35,RU,2023-07-17
261,chimore,-16.9833,-65.1333,68.56,81,85,2.53,BO,2023-07-17
262,aykhal,66.0,111.5,46.65,67,66,13.38,RU,2023-07-17
263,mbandaka,0.0487,18.2603,72.37,86,25,3.24,CD,2023-07-17
264,grand falls-windsor,48.9332,-55.6649,77.5,70,50,1.01,CA,2023-07-17
265,hobyo,5.3505,48.5268,76.46,85,24,28.21,SO,2023-07-17
266,amurzet,47.6967,131.0981,66.58,89,77,2.68,RU,2023-07-17
267,la passe,45.5549,-0.8967,66.97,66,0,9.33,FR,2023-07-17
268,sola,-13.8833,167.55,81.27,83,75,9.22,VU,2023-07-17
269,penon blanco,24.7897,-104.0369,88.84,18,9,14.03,MX,2023-07-17
270,kalabo,-14.97,22.6814,54.48,43,0,5.59,ZM,2023-07-17
271,mariehamn,60.0973,19.9348,60.66,82,0,10.36,AX,2023-07-17
272,jiwani,25.05,61.7417,83.1,82,81,9.71,PK,2023-07-17
273,praszka,51.0537,18.4532,59.65,61,31,9.66,PL,2023-07-17
274,nigel,-26.4314,28.4771,52.39,41,0,2.39,ZA,2023-07-17
275,kalmunai,7.4167,81.8167,80.2,75,96,7.05,LK,2023-07-17
276,margaret river,-33.95,115.0667,61.32,68,99,18.68,AU,2023-07-17
277,dolinsk,47.35,142.8,63.68,77,90,1.21,RU,2023-07-17
278,dwarka,22.2394,68.9678,82.38,80,100,17.96,IN,2023-07-17
279,temryuk,45.2722,37.3811,57.42,60,0,5.46,RU,2023-07-17
280,kilindoni,-7.9139,39.6668,77.07,79,0,17.65,TZ,2023-07-17
281,zhenlai,45.8495,123.2973,71.64,73,1,5.48,CN,2023-07-17
282,turpan,42.9333,89.1667,94.89,19,99,4.0,CN,2023-07-17
283,mount gambier,-37.8333,140.7667,49.82,79,77,12.88,AU,2023-07-17
284,farafangana,-22.8167,47.8333,67.17,92,19,3.38,MG,2023-07-17
285,kristinestad,62.2743,21.376,58.1,87,99,13.56,FI,2023-07-17
286,santa vitoria do palmar,-33.5189,-53.3681,42.06,71,6,7.85,BR,2023-07-17
287,ornskoldsvik,63.2909,18.7153,58.15,94,100,2.3,SE,2023-07-17
288,guarapari,-20.6667,-40.4975,74.89,91,17,0.56,BR,2023-07-17
289,palia kalan,28.45,80.5833,82.51,79,100,5.37,IN,2023-07-17
290,akom ii,2.7833,10.5667,70.54,99,83,3.15,CM,2023-07-17
291,wainwright,52.839,-110.8572,76.08,49,100,23.38,CA,2023-07-17
292,conception bay south,47.4999,-52.9981,79.75,87,38,10.36,CA,2023-07-17
293,kirakira,-10.4544,161.9205,83.03,76,86,5.79,SB,2023-07-17
294,medina,24.4686,39.6142,102.63,10,0,8.05,SA,2023-07-17
295,carnot,4.9409,15.8665,71.06,92,11,2.62,CF,2023-07-17
296,uruacu,-14.5247,-49.1408,77.36,37,10,3.0,BR,2023-07-17
297,maputo,-25.9653,32.5892,58.68,82,0,3.44,MZ,2023-07-17
298,esperanza,19.5847,-70.9849,86.58,72,44,8.99,DO,2023-07-17
299,vila franca do campo,37.7167,-25.4333,66.61,81,82,2.91,PT,2023-07-17
300,keflavik,64.0049,-22.5624,50.43,87,0,10.36,IS,2023-07-17
301,nianzishan,47.5167,122.8833,70.79,77,82,3.78,CN,2023-07-17
302,laguna,38.421,-121.4238,108.32,28,0,6.91,US,2023-07-17
303,valley city,46.9233,-98.0032,72.12,49,20,6.91,US,2023-07-17
304,haiku-pauwela,20.9219,-156.3051,86.16,66,40,25.32,US,2023-07-17
305,yaren,-0.5472,166.916,83.66,74,17,5.01,NR,2023-07-17
306,chonchi,-42.6128,-73.8092,38.41,86,23,0.83,CL,2023-07-17
307,leticia,-4.2153,-69.9406,86.05,70,20,3.44,CO,2023-07-17
308,yanbu,24.0891,38.0637,93.24,33,0,11.5,SA,2023-07-17
309,quellon,-43.1167,-73.6167,34.05,93,0,2.3,CL,2023-07-17
310,manga,11.6636,-1.0731,83.12,65,100,6.55,BF,2023-07-17
311,bikenibeu village,1.3673,173.1241,84.16,84,75,3.44,KI,2023-07-17
312,berezovyy,51.6667,135.7,78.1,56,5,1.61,RU,2023-07-17
313,wulingyuan,29.3494,110.5441,73.47,89,98,2.08,CN,2023-07-17
314,kem',64.9555,34.5793,60.94,84,99,7.34,RU,2023-07-17
315,sambava,-14.2667,50.1667,70.12,87,45,10.76,MG,2023-07-17
316,san rafael del sur,11.8485,-86.4384,81.57,74,99,13.0,NI,2023-07-17
317,koppal,15.35,76.15,73.51,84,100,17.11,IN,2023-07-17
318,port lincoln,-34.7333,135.8667,55.9,72,77,12.93,AU,2023-07-17
319,rawah,34.4816,41.9093,89.46,14,0,9.73,IQ,2023-07-17
320,immokalee,26.4187,-81.4173,87.91,78,0,0.0,US,2023-07-17
321,greymouth,-42.4667,171.2,53.13,87,61,0.81,NZ,2023-07-17
322,nueva gerona,21.8833,-82.8,89.33,57,27,7.96,CU,2023-07-17
323,marica,-22.9194,-42.8186,71.55,86,36,2.77,BR,2023-07-17
324,pavlodar,52.3,76.95,64.2,68,0,8.95,KZ,2023-07-17
325,mariinsk,56.2139,87.7472,58.6,92,74,1.12,RU,2023-07-17
326,can tho,10.0333,105.7833,78.78,100,75,5.75,VN,2023-07-17
327,jolo,6.05,121.0167,78.91,89,100,3.36,PH,2023-07-17
328,san rafael del yuma,18.4299,-68.6739,83.77,87,98,9.15,DO,2023-07-17
329,severo-yeniseyskiy,60.3725,93.0408,49.28,67,14,1.57,RU,2023-07-17
330,thunder bay,48.4001,-89.3168,67.98,55,75,11.5,CA,2023-07-17
331,xai-xai,-25.0519,33.6442,59.88,70,0,6.22,MZ,2023-07-17
332,benjamin aceval,-24.9667,-57.5667,57.34,60,100,7.27,PY,2023-07-17
333,seshcha,53.7361,33.3387,61.99,92,86,5.91,RU,2023-07-17
334,namibe,-15.1961,12.1522,68.56,68,3,2.42,AO,2023-07-17
335,kovernino,57.1253,43.8142,64.02,75,71,3.29,RU,2023-07-17
336,alofi,-19.0595,-169.9187,75.09,78,75,14.97,NU,2023-07-17
337,puerto leguizamo,-0.1934,-74.7819,73.65,97,98,2.3,CO,2023-07-17
338,suva,-18.1416,178.4415,74.68,73,75,9.22,FJ,2023-07-17
339,castillos,-34.1667,-53.8333,41.85,70,17,8.5,UY,2023-07-17
340,eastham,41.8301,-69.9739,82.42,84,0,8.05,US,2023-07-17
341,kolonia town,6.964,158.206,82.4,83,100,6.91,FM,2023-07-17
342,banjar,-8.19,114.9675,73.35,85,16,3.22,ID,2023-07-17
343,jingdezhen,29.2947,117.2079,77.0,96,96,1.74,CN,2023-07-17
344,tobol'sk,58.2,68.2667,60.53,96,100,5.57,RU,2023-07-17
345,saudarkrokur,65.7461,-19.6394,43.0,93,18,4.29,IS,2023-07-17
346,vadso,70.0744,29.7487,61.68,82,75,3.44,NO,2023-07-17
347,al kharijah,25.4514,30.5464,87.69,18,0,4.16,EG,2023-07-17
348,mejit,10.2753,170.8646,82.09,79,22,16.15,MH,2023-07-17
349,tutoia,-2.7619,-42.2744,80.38,80,62,13.09,BR,2023-07-17
350,nhamunda,-2.1861,-56.7131,80.67,62,73,3.24,BR,2023-07-17
351,porto-novo,6.4965,2.6036,80.42,88,81,7.56,BJ,2023-07-17
352,paracuru,-3.41,-39.0306,81.1,78,1,13.91,BR,2023-07-17
353,nguigmi,14.2495,13.1092,87.4,48,2,6.58,NE,2023-07-17
354,fort st. john,56.2499,-120.8529,69.69,49,75,13.8,CA,2023-07-17
355,shevchenko,48.5,35.0,67.66,58,3,2.93,UA,2023-07-17
356,gaiman,-43.2897,-65.4929,37.67,36,0,6.26,AR,2023-07-17
357,"laikit, laikit ii (dimembe)",1.4792,124.9735,72.45,94,20,2.3,ID,2023-07-17
358,chemin grenier,-20.4872,57.4656,72.99,79,21,17.56,MU,2023-07-17
359,duong dong,10.2167,103.9667,80.6,94,40,16.11,VN,2023-07-17
360,mutum,-19.8,-41.4383,73.74,54,27,3.04,BR,2023-07-17
361,parabel',58.6978,81.4825,54.68,78,37,3.49,RU,2023-07-17
362,chilecito,-29.1619,-67.4974,43.5,73,1,8.77,AR,2023-07-17
363,touros,-5.1989,-35.4608,76.3,82,5,12.19,BR,2023-07-17
364,thulamahashi,-24.7246,31.1994,61.3,36,0,4.25,ZA,2023-07-17
365,labrador city,52.9463,-66.9114,78.71,57,40,5.75,CA,2023-07-17
366,kenai,60.5544,-151.2583,61.09,87,100,11.5,US,2023-07-17
367,mutuali,-14.8706,37.0044,56.1,86,0,3.49,MZ,2023-07-17
368,jayapura,-2.5333,140.7,79.99,86,73,3.33,ID,2023-07-17
369,guerrero negro,27.9769,-114.0611,81.09,54,7,15.86,MX,2023-07-17
370,nabire,-3.3667,135.4833,79.18,82,92,2.53,ID,2023-07-17
371,imbituba,-28.24,-48.6703,55.29,85,100,9.1,BR,2023-07-17
372,tanah merah,5.8,102.15,80.42,89,100,2.51,MY,2023-07-17
373,polyarnyy,69.1989,33.4478,58.33,84,98,10.33,RU,2023-07-17
374,ancud,-41.8697,-73.8203,37.63,80,30,7.29,CL,2023-07-17
375,onverwacht,5.5833,-55.1833,84.06,65,40,9.22,SR,2023-07-17
376,colchani,-20.3,-66.9333,41.22,25,97,7.7,BO,2023-07-17
377,saint-pierre-du-mont,43.8845,-0.5219,73.15,66,0,5.75,FR,2023-07-17
378,horasan,40.0458,42.1728,48.58,79,0,3.76,TR,2023-07-17
379,vilyuysk,63.7553,121.6247,56.01,92,100,9.64,RU,2023-07-17
380,zeya,53.75,127.2667,76.42,49,99,3.91,RU,2023-07-17
381,novoazovs'k,47.1139,38.086,71.55,63,41,4.5,UA,2023-07-17
382,paka,4.6374,103.4368,80.53,83,100,4.61,MY,2023-07-17
383,champerico,14.3,-91.9167,95.54,66,77,8.99,GT,2023-07-17
384,abu jibeha,11.4562,31.2285,76.48,73,76,1.88,SD,2023-07-17
385,al ghayzah,16.2079,52.176,78.48,88,35,11.05,YE,2023-07-17
386,kasongo-lunda,-6.4667,16.8167,72.93,32,1,2.1,CD,2023-07-17
387,ola,59.5833,151.2833,60.51,81,26,5.57,RU,2023-07-17
388,aketi,2.7388,23.7833,75.51,66,71,2.04,CD,2023-07-17
389,udachny,66.4167,112.4,49.8,60,81,13.69,RU,2023-07-17
390,gardnerville ranchos,38.8882,-119.7413,98.19,23,0,11.5,US,2023-07-17
391,margate,51.3813,1.3862,59.7,81,100,1.99,GB,2023-07-17
392,kimbe,-5.5502,150.1429,83.64,69,26,10.47,PG,2023-07-17
393,flying fish cove,-10.4217,105.6791,74.88,83,75,11.5,CX,2023-07-17
394,chernigovka,44.3389,132.5728,66.63,93,86,4.5,RU,2023-07-17
395,maumere,-8.6199,122.2111,76.86,82,40,5.73,ID,2023-07-17
396,yuzhno-kurilsk,44.0306,145.8556,56.43,97,100,4.41,RU,2023-07-17
397,pocone,-16.2567,-56.6228,80.73,33,16,4.59,BR,2023-07-17
398,pokhara,28.2333,83.9833,72.57,98,100,1.95,NP,2023-07-17
399,bataipora,-22.2953,-53.2711,66.11,63,49,6.49,BR,2023-07-17
400,maintirano,-18.0667,44.0167,72.95,81,29,10.85,MG,2023-07-17
401,mexico,15.0646,120.7198,80.31,87,100,1.5,PH,2023-07-17
402,lorengau,-2.0226,147.2712,84.52,72,36,13.73,PG,2023-07-17
403,nong phai,15.9903,101.0618,74.98,98,100,2.08,TH,2023-07-17
404,ar ruways,24.1103,52.7306,89.1,60,1,5.14,AE,2023-07-17
405,korla,41.7597,86.1469,84.92,27,95,13.11,CN,2023-07-17
406,northam,51.0333,-4.2167,56.61,90,100,4.76,GB,2023-07-17
407,vernon,50.2581,-119.2691,83.93,32,7,14.0,CA,2023-07-17
408,gaspra,44.4333,34.1,71.71,64,0,4.38,UA,2023-07-17
409,sarh,9.1429,18.3923,80.51,74,20,8.05,TD,2023-07-17
410,puerto gaitan,4.3133,-72.0816,76.87,87,82,6.31,CO,2023-07-17
411,fort mcmurray,56.7268,-111.381,60.39,94,100,11.5,CA,2023-07-17
412,leh,34.1667,77.5833,62.38,51,24,6.64,IN,2023-07-17
413,hadibu,12.65,54.0333,77.68,77,36,24.14,YE,2023-07-17
414,ardesen,41.1911,40.9875,68.05,59,2,8.39,TR,2023-07-17
415,yerofey pavlovich,53.9667,121.9667,72.03,53,18,1.74,RU,2023-07-17
416,andergrove,-21.0833,149.1833,68.31,81,100,17.43,AU,2023-07-17
417,muncar,-8.4333,114.3333,73.8,90,68,4.07,ID,2023-07-17
418,tucurui,-3.7661,-49.6725,83.23,48,57,2.84,BR,2023-07-17
419,kirillov,59.863,38.3813,63.32,69,96,3.29,RU,2023-07-17
420,palopo,-2.9996,120.1921,75.38,74,82,2.3,ID,2023-07-17
421,rongelap,11.1635,166.8941,83.19,77,24,13.15,MH,2023-07-17
422,tamanrasset,22.785,5.5228,80.51,12,90,6.91,DZ,2023-07-17
423,happy valley-goose bay,53.3168,-60.3315,73.71,78,75,12.66,CA,2023-07-17
424,dalhart,36.0595,-102.5133,99.48,25,0,14.97,US,2023-07-17
425,holbrook,40.8123,-73.0784,83.66,86,75,10.36,US,2023-07-17
426,sao gabriel,-30.3364,-54.32,41.99,78,0,6.89,BR,2023-07-17
427,waingapu,-9.6567,120.2641,74.23,82,42,10.33,ID,2023-07-17
428,atakpame,7.5333,1.1333,72.34,96,65,4.07,TG,2023-07-17
429,bulgan,48.8125,103.5347,58.69,94,72,4.41,MN,2023-07-17
430,brainerd,46.358,-94.2008,73.18,46,40,12.66,US,2023-07-17
431,shingu,33.7333,135.9833,85.44,60,20,1.21,JP,2023-07-17
432,newman,37.3138,-121.0208,106.05,7,3,16.04,US,2023-07-17
433,remire-montjoly,4.9167,-52.2667,77.04,88,0,0.0,GF,2023-07-17
434,huruta,8.15,39.35,60.04,73,12,5.44,ET,2023-07-17
435,papao,-17.75,-149.55,83.88,64,7,1.03,PF,2023-07-17
436,umrala,21.8333,71.8167,80.94,84,100,9.24,IN,2023-07-17
437,tolanaro,-25.0319,46.9987,59.07,94,20,0.0,MG,2023-07-17
438,cassilandia,-19.1133,-51.7342,75.99,42,47,3.62,BR,2023-07-17
439,nagqu,31.5,92.0,36.99,82,95,3.22,CN,2023-07-17
440,chinde,26.8418,88.0763,65.59,93,100,4.76,NP,2023-07-17
441,asifabad,19.3667,79.2833,75.02,96,100,14.0,IN,2023-07-17
442,taoudenni,22.6783,-3.9836,101.3,21,4,5.77,ML,2023-07-17
443,can,40.0333,27.0524,64.33,89,0,3.67,TR,2023-07-17
444,voranava,54.1483,25.3131,63.3,84,96,6.8,BY,2023-07-17
445,kapa'a,22.0752,-159.319,86.32,69,40,16.11,US,2023-07-17
446,olovyannaya,50.95,115.5667,70.88,60,72,3.44,RU,2023-07-17
447,dabat,12.9842,37.765,55.96,84,78,1.28,ET,2023-07-17
448,sedro-woolley,48.5039,-122.2361,74.32,56,100,9.22,US,2023-07-17
449,morant bay,17.8815,-76.4093,87.42,78,69,9.24,JM,2023-07-17
450,ostersund,63.1792,14.6357,52.25,37,75,6.91,SE,2023-07-17
451,thurso,58.5927,-3.5259,51.85,84,77,11.99,GB,2023-07-17
452,bantay,17.5847,120.3892,82.96,78,100,6.46,PH,2023-07-17
453,inirida,3.8653,-67.9239,75.51,93,51,1.5,CO,2023-07-17
454,sao vicente,-23.9631,-46.3919,68.27,82,51,1.63,BR,2023-07-17
455,igurusi,-8.85,33.85,56.19,71,1,3.91,TZ,2023-07-17
456,sevilla,37.3824,-5.9761,86.11,56,0,8.05,ES,2023-07-17
457,leava,-14.3,-178.1667,80.35,80,99,24.02,WF,2023-07-17
458,arta,39.1606,20.9853,76.64,50,0,5.03,GR,2023-07-17
459,kailua-kona,19.6406,-155.9956,87.76,75,20,11.5,US,2023-07-17
460,bim son,20.0781,105.8603,83.23,64,100,4.03,VN,2023-07-17
461,rudsar,37.1376,50.288,71.02,91,96,2.55,IR,2023-07-17
462,murun-kuren,49.6342,100.1625,55.27,74,9,4.12,MN,2023-07-17
463,tosontsengel,48.7567,98.2839,50.92,68,19,1.99,MN,2023-07-17
464,klyuchi,52.2667,79.1667,63.27,64,23,6.31,RU,2023-07-17
465,gadzhiyevo,69.2551,33.3362,58.23,84,99,10.38,RU,2023-07-17
466,mount pearl,47.5166,-52.7813,79.14,61,20,16.11,CA,2023-07-17
467,arno,60.1167,18.6333,57.78,82,43,14.63,SE,2023-07-17
468,glace bay,46.1969,-59.957,77.79,82,75,17.27,CA,2023-07-17
469,velsen-zuid,52.46,4.65,62.96,87,0,5.75,NL,2023-07-17
470,majene,-3.5403,118.9707,76.01,80,99,6.69,ID,2023-07-17
471,bondo,3.8146,23.6866,71.89,80,68,0.56,CD,2023-07-17
472,hastings,50.8552,0.5729,61.52,42,81,7.31,GB,2023-07-17
473,juegang,32.3174,121.1855,77.83,93,95,6.67,CN,2023-07-17
474,xilin hot,43.9667,116.0333,70.48,52,68,7.0,CN,2023-07-17
475,kabompo,-13.5927,24.2008,53.51,49,0,5.35,ZM,2023-07-17
476,saiha,22.4833,92.9667,70.92,99,89,2.3,IN,2023-07-17
477,cadale,2.7603,46.3222,76.86,84,43,19.24,SO,2023-07-17
478,reggane,26.7158,0.1714,98.46,7,20,14.2,DZ,2023-07-17
479,wanxian,30.8039,108.3897,74.08,78,0,3.89,CN,2023-07-17
480,lata,40.1629,-8.3327,57.87,84,1,1.72,PT,2023-07-17
481,las vegas,36.175,-115.1372,115.61,12,0,15.01,US,2023-07-17
482,brookings,44.3114,-96.7984,73.26,43,75,4.61,US,2023-07-17
483,siwa oasis,29.2041,25.5195,87.58,32,0,9.13,EG,2023-07-17
484,amga,60.8953,131.9608,65.86,57,31,9.91,RU,2023-07-17
485,lerwick,60.1545,-1.1494,51.8,82,100,16.37,GB,2023-07-17
486,zhaotong,27.3167,103.7167,56.75,90,0,2.75,CN,2023-07-17
487,tokmak,47.2514,35.7058,66.4,59,2,5.99,UA,2023-07-17
488,corn island,12.1694,-83.0418,79.36,88,100,27.4,NI,2023-07-17
489,kayangel,8.0823,134.7173,83.1,81,99,17.98,PW,2023-07-17
490,east ballina,-28.8667,153.5833,59.79,93,97,7.25,AU,2023-07-17
491,kargasok,59.0556,80.8572,54.57,74,45,3.49,RU,2023-07-17
492,sandnessjoen,66.0217,12.6316,55.08,86,60,20.4,NO,2023-07-17
493,uliastay,47.7417,96.8444,56.52,51,93,4.47,MN,2023-07-17
494,flagstaff,35.1981,-111.6513,92.86,21,20,9.22,US,2023-07-17
495,ocean shores,46.9737,-124.1563,69.8,72,0,13.8,US,2023-07-17
496,port isabel,26.0734,-97.2086,95.07,66,0,20.71,US,2023-07-17
497,south hedland,-20.4089,118.5983,51.73,66,8,0.0,AU,2023-07-17
498,thinadhoo,0.5333,72.9333,81.45,76,44,5.88,MV,2023-07-17
499,darab,28.7519,54.5444,86.4,29,0,4.38,IR,2023-07-17
500,aberdeen,57.1437,-2.0981,54.09,83,41,9.22,GB,2023-07-17
501,aldama,22.9167,-98.0667,97.5,46,8,13.62,MX,2023-07-17
502,quelimane,-17.8786,36.8883,66.15,82,40,5.75,MZ,2023-07-17
503,trabzon,40.9167,39.8333,66.29,56,0,16.11,TR,2023-07-17
504,ketchikan,55.3422,-131.6461,64.87,72,75,8.05,US,2023-07-17
505,bartlesville,36.7473,-95.9808,85.95,66,0,6.91,US,2023-07-17
506,chistopol',55.3631,50.6424,59.74,88,19,8.57,RU,2023-07-17
507,bontang,0.1333,117.5,75.22,89,93,5.84,ID,2023-07-17
508,yasothon,15.75,104.1333,76.3,93,100,9.93,TH,2023-07-17
509,penhalonga,-18.8911,32.6978,44.94,71,1,2.21,ZW,2023-07-17
510,kondoa,-4.9,35.7833,53.06,83,0,3.33,TZ,2023-07-17
511,aldan,58.6031,125.3894,73.69,57,15,7.94,RU,2023-07-17
512,rikaze,29.25,88.8833,54.27,73,100,7.34,CN,2023-07-17
513,goondiwindi,-28.55,150.3167,59.54,69,72,7.96,AU,2023-07-17
514,island harbour,50.724,-1.2758,60.98,89,86,1.01,GB,2023-07-17
515,knysna,-34.0363,23.0471,56.46,86,9,2.37,ZA,2023-07-17
516,kiratu,-3.3333,35.6667,54.88,87,2,4.5,TZ,2023-07-17
517,harper,4.375,-7.7169,76.89,78,98,8.25,LR,2023-07-17
518,nova vicosa,-17.8919,-39.3719,73.74,83,1,10.74,BR,2023-07-17
519,villa gesell,-37.2639,-56.973,40.05,75,54,13.51,AR,2023-07-17
520,razole,16.4833,81.8333,79.14,82,99,7.52,IN,2023-07-17
521,carboneras,37.0015,-1.9213,82.31,74,0,9.15,ES,2023-07-17
522,santarem,-2.4431,-54.7083,80.73,89,0,2.3,BR,2023-07-17
523,la mira,18.035,-102.3266,84.33,74,99,5.77,MX,2023-07-17
524,nazare,-13.035,-39.0144,69.49,93,1,1.79,BR,2023-07-17
525,khovd,48.0056,91.6419,64.11,48,0,1.21,MN,2023-07-17
526,borovichi,58.3878,33.9155,59.02,94,44,2.55,RU,2023-07-17
527,bocas del toro,9.3333,-82.25,80.47,78,100,6.31,PA,2023-07-17
528,hudson,40.7168,-74.0663,89.64,66,0,14.0,US,2023-07-17
529,hammerfest,70.6634,23.6821,59.45,82,75,9.22,NO,2023-07-17
530,prince rupert,54.3161,-130.3201,64.49,80,100,4.61,CA,2023-07-17
531,cubatao,-23.895,-46.4253,69.19,86,57,2.71,BR,2023-07-17
532,taupo,-38.6833,176.0833,51.76,69,30,9.13,NZ,2023-07-17
533,mogok,22.9167,96.5,66.13,99,80,2.37,MM,2023-07-17
534,naha,26.2125,127.6811,85.91,87,75,14.97,JP,2023-07-17
535,babolsar,36.7025,52.6576,71.92,76,84,2.84,IR,2023-07-17
536,broome,42.2506,-75.833,82.78,71,0,6.91,US,2023-07-17
537,aydarken,39.9443,71.3429,65.61,44,0,3.51,KG,2023-07-17
538,colesberg,-30.72,25.0972,51.4,36,0,6.46,ZA,2023-07-17
539,baukau,51.5526,7.2042,58.23,89,15,10.0,DE,2023-07-17
540,suntar,62.1444,117.6319,56.95,92,100,10.74,RU,2023-07-17
541,saint-felicien,48.6501,-72.4491,75.88,73,75,5.75,CA,2023-07-17
542,nema,57.5067,50.5011,58.01,76,55,6.96,RU,2023-07-17
543,saintes,45.6667,-0.75,66.49,65,0,7.74,FR,2023-07-17
544,ilha de mocambique,-15.0342,40.7358,74.93,71,2,18.37,MZ,2023-07-17
545,aripuana,-9.1667,-60.6333,80.04,43,84,1.34,BR,2023-07-17
546,santa maria,-29.6842,-53.8069,42.1,93,0,2.3,BR,2023-07-17
547,carutapera,-1.195,-46.02,74.64,94,5,5.75,BR,2023-07-17
548,east london,-33.0153,27.9116,62.06,64,15,5.75,ZA,2023-07-17
549,nuuk,64.1835,-51.7216,45.21,100,75,3.44,GL,2023-07-17
550,sisimiut,66.9395,-53.6735,41.38,98,100,2.24,GL,2023-07-17
551,likiep,9.8251,169.3107,82.42,77,12,8.95,MH,2023-07-17
552,nyurba,63.2842,118.3319,56.01,94,99,5.5,RU,2023-07-17
553,tsiroanomandidy,-18.7667,46.0333,64.27,73,80,2.46,MG,2023-07-17
554,dalandzadgad,43.5708,104.425,82.4,12,47,29.06,MN,2023-07-17
555,santa ana de yacuma,-13.75,-65.4333,85.95,58,40,4.61,BO,2023-07-17
